[{
	"name":"Fucking (Austria)",
	"woeid": 545111,
	"latitude": 48.0767635,
	"longitude": 12.8249252
},{
	"name":"Dildo (Canada)",
	"woeid": 403,
	"latitude": 47.5735686,
	"longitude": -53.5768459
},{
	"name":"Tittybong (Australia)",
	"woeid": 1098954,
	"latitude": 35.7566743,
	"longitude": 143.2902652
},{
	"name":"Poo (India)",
	"woeid": 2284563,
	"latitude": 31.7634299,
	"longitude": 78.5872649
},{
	"name":"Shit (Iran)",
	"woeid": 36367,
	"latitude": 52.3916496,
	"longitude": -2.0907434
},{
	"name":"Bell End (England)",
	"woeid": 2255311,
	"latitude": 36.9785861,
	"longitude": 48.629736
},{
	"name":"Twatt (England)",
	"woeid": 38382,
	"latitude": 59.0985567,
	"longitude": -3.2763757
},{
	"name":"Bumbang (Australia)",
	"woeid": 1105348,
	"latitude": -34.5646117,
	"longitude": 142.7724567
},{
	"name":"Brown Willy (England)",
	"woeid": 12602181,
	"latitude": 50.590624,
	"longitude": -4.6377693
},{
	"name":"Middelfart (Denmark)",
	"woeid": 555561,
	"latitude": 55.5024391,
	"longitude": 9.692643
},{
	"name":"Anus (Philippines)",
	"woeid": 1159513,
	"latitude": 13.8769541,
	"longitude": 121.064465
},{
	"name":"Minge Lane (England)",
	"woeid": 38811,
	"latitude": 52.0596539,
	"longitude": -2.2187255
},{
	"name":"Cockermouth (England)",
	"woeid": 16470,
	"latitude": 54.6606719,
	"longitude": -3.3796337
},{
	"name":"Anus (Indonesia)",
	"woeid": 1047131,
	"latitude": -2.200935,
	"longitude": 139.4427157
},{
	"name":"Bald Knob (USA)",
	"woeid": 2358592,
	"latitude": 35.3163094,
	"longitude": -91.5891567
},{
	"name":"Bald Knob (Australia)",
	"woeid": 28583930,
	"latitude": -26.7824075,
	"longitude": 152.873897
}]
