[{
	"name":"Fucking (Austria)",
	"woeid": 545111,
	"latitude": 48.0767635,
	"longitude": 12.8249252
},{
	"name":"Dildo (Canada)",
	"woeid": 403,
	"latitude": 47.5735686,
	"longitude": -53.5768459
},{
	"name":"Tittybong (Australia)",
	"woeid": 1098954,
	"latitude": 35.7566743,
	"longitude": 143.2902652
},{
	"name":"Poo (India)",
	"woeid": 2284563,
	"latitude": 31.7634299,
	"longitude": 78.5872649
},{
	"name":"Shit (Iran)",
	"woeid": 36367,
	"latitude": 52.3916496,
	"longitude": -2.0907434
},{
	"name":"Bell End (England)",
	"woeid": 2255311,
	"latitude": 36.9785861,
	"longitude": 48.629736
},{
	"name":"Twatt (England)",
	"woeid": 38382,
	"latitude": 59.0985567,
	"longitude": -3.2763757
},{
	"name":"Bumbang (Australia)",
	"woeid": 1105348,
	"latitude": -34.5646117,
	"longitude": 142.7724567
},{
	"name":"Brown Willy (England)",
	"woeid": 12602181,
	"latitude": 50.590624,
	"longitude": -4.6377693
},{
	"name":"Middelfart (Denmark)",
	"woeid": 555561,
	"latitude": 55.5024391,
	"longitude": 9.692643
},{
	"name":"Anus (Philippines)",
	"woeid": 1159513,
	"latitude": 13.8769541,
	"longitude": 121.064465
},{
	"name":"Minge Lane (England)",
	"woeid": 38811,
	"latitude": 52.0596539,
	"longitude": -2.2187255
},{
	"name":"Cockermouth (England)",
	"woeid": 16470,
	"latitude": 54.6606719,
	"longitude": -3.3796337
},{
	"name":"Anus (Indonesia)",
	"woeid": 1047131,
	"latitude": -2.200935,
	"longitude": 139.4427157
},{
	"name":"Bald Knob (USA)",
	"woeid": 2358592,
	"latitude": 35.3163094,
	"longitude": -91.5891567
},{
	"name":"Bald Knob (Australia)",
	"woeid": 28583930,
	"latitude": -26.7824075,
	"longitude": 152.873897
},{
	"name":"Beaver Bottom (USA)",
	"woeid": 2360950,
	"latitude": 38.402221,
	"longitude": -110.0247143
},{
	"name":"Yorkeys Knob (Australia)",
	"woeid": 1107086,
	"latitude": -16.8260565,
	"longitude": 145.6970941
},{
	"name":"Felchville (USA)",
	"woeid": 2402823,
	"latitude": 42.2978249,
	"longitude": -71.359299
},{
	"name":"Dongo (Congo)",
	"woeid": 1475696,
	"latitude": 2.7186104,
	"longitude": 18.3968424
},{
	"name":"Cumbum (India)",
	"woeid": 2293526,
	"latitude": 9.7355485,
	"longitude": 77.2671271
},{
	"name":"Chinamans Knob (Australia)",
	"woeid": 1098885,
	"latitude": -32.5666478,
	"longitude": 152.0245785
},{
	"name":"Big Dick Lake (USA)",
	"woeid": 2412844,
	"latitude": 47.6098911,
	"longitude": -93.6185213
},{
	"name":"Little Dick Lake (USA)",
	"woeid": 2412844,
	"latitude": 47.6120337,
	"longitude": -93.627885
},{
	"name":"Intercourse (USA)",
	"woeid": 2427319,
	"latitude": 40.0368395,
	"longitude": -76.1275501
},{
	"name":"Bastardo (Italy)",
	"woeid": 710780,
	"latitude": 42.869803,
	"longitude": -12.5532192
},{
	"name":"Assawoman (USA)",
	"woeid": 23509338,
	"latitude": 37.8740351,
	"longitude": -75.5323278
},{
	"name":"Llabià (Spain)",
	"woeid": 765336,
	"latitude": 42.0190299,
	"longitude": 3.0855995
},{
	"name":"Beaverlick (USA)",
	"woeid": 2361057,
	"latitude": 38.8789512,
	"longitude": -84.7031449
},{
	"name":"Bern Wankdorf (Switzerland)",
	"woeid": 781788,
	"latitude": 46.9642826,
	"longitude": 7.4605101
},{
	"name":"Mount Buggery (Australia)",
	"woeid": 28586296,
	"latitude": -37.143117,
	"longitude": 146.5010262
},{
	"name":"Sandy Balls Estate (England)",
	"woeid": 12602169,
	"latitude": 50.9271517,
	"longitude": -1.814901
},{
	"name":"Pussy (France)",
	"woeid": 12597180,
	"latitude": 45.551578,
	"longitude": 6.4461632
},{
	"name":"Fuckspad (Netherlands)",
	"woeid": 727349,
	"latitude": 52.0034536,
	"longitude": 5.9017248
},{
	"name":"Fučkovci (Slovenia)",
	"woeid": 529779,
	"latitude": 45.5464139,
	"longitude": 15.2853353
},{
	"name":"Fister (Norway)",
	"woeid": 858447,
	"latitude": 59.1756203,
	"longitude": 6.0760972
},{
	"name":"Ash Shit (Saudi Arabia)",
	"woeid": 1939753,
	"latitude": 24.7872337,
	"longitude": 46.6205209
},{
	"name":"Cumming (USA)",
	"woeid": 2388249,
	"latitude": 34.2035271,
	"longitude": -84.165649
},{
	"name":"Asshole Road (USA)",
	"woeid": 2410979,
	"latitude": 38.3485621,
	"longitude": -120.5889957
},{
	"name":"Wetwang (England)",
	"woeid": 40060,
	"latitude": 54.0193721,
	"longitude": -0.5876468
},{
	"name":"Muff (Ireland)",
	"woeid": 560645,
	"latitude": 55.0680679,
	"longitude": -7.2777046
},{
	"name":"Mount Clitoris",
	"woeid": 1194815,
	"latitude": 6.945587,
	"longitude": 120.8261347
},{
	"name":"Lake Titicaca (Peru/Bolivia)",
	"woeid": 1194815,
	"latitude": -15.9137768,
	"longitude": -69.8621634
}]
